{
    "is_success": true,
    "message": "Success",
    "data": [
        {
            "group": "PTS",
            "address": "Jalan Kh Agus Salim No 45",
            "name": "AKPER Gita Matura Abadi Kisaran",
            "short_name": null,
            "province": "Prov. Sumatera Utara",
            "province_code": "12",
            "regency": "Kab. Asahan",
            "regency_code": "1209",
            "long": null,
            "lat": null,
            "university_type": "Akademi"
        },
        {
            "group": "PTS",
            "address": "Jl.Letjen Pol. Mappa Oudang No.63 Makassar",
            "name": "AKPER Mappa Oudang Makassar",
            "short_name": "AKPER M.O.M",
            "province": "Prov. Sulawesi Selatan",
            "province_code": "73",
            "regency": "Kota Makassar",
            "regency_code": "7371",
            "long": 119.4155878,
            "lat": -5.1742882,
            "university_type": "Akademi"
        },
        {
            "group": "PTS",
            "address": "Jalan Malaka Raya No 07",
            "name": "AKPER Putra Pertiwi Watansoppeng",
            "short_name": null,
            "province": "Prov. Sulawesi Selatan",
            "province_code": "73",
            "regency": "Kab. Soppeng",
            "regency_code": "7312",
            "long": null,
            "lat": null,
            "university_type": "Akademi"
        },
        {
            "group": "PTS",
            "address": "Banjarmasin",
            "name": "AKTEK Radiodiagnostik & Terapi Citra Intan Persada",
            "short_name": null,
            "province": "Prov. Kalimantan Selatan",
            "province_code": "63",
            "regency": "Kota Banjarmasin",
            "regency_code": "6303",
            "long": 114.5980436,
            "lat": -3.3233524,
            "university_type": "Akademi"
        },
        {
            "group": "PTS",
            "address": "Jln. Tukad Batanghari VII No. 21 Renon",
            "name": "AKTEK Radiodiagnostik Dan Radioterapi Bali",
            "short_name": "ATRO Bali",
            "province": "Prov. Bali",
            "province_code": "51",
            "regency": "Kota Denpasar",
            "regency_code": "5171",
            "long": 115.2320823,
            "lat": -8.6824261,
            "university_type": "Akademi"
        },
        {
            "group": "PTS",
            "address": "Jl Birugo Bungo No 137  Bukittinggi",
            "name": "AMIK Bukittinggi",
            "short_name": "AMIK \"BOEKITTINGGI\"",
            "province": "Prov. Sumatera Barat",
            "province_code": "13",
            "regency": "Kota Bukittinggi",
            "regency_code": "1375",
            "long": 100.385979,
            "lat": -0.325702,
            "university_type": "Akademi"
        },
        {
            "group": "PTS",
            "address": "Cideng Raya No 181 Ds Kertawinangun-Kec. Kedawung",
            "name": "AMIK Bumi Nusantara",
            "short_name": "AMIK BUMI NUSANTARA",
            "province": "Prov. Jawa Barat",
            "province_code": "32",
            "regency": "Kab. Cirebon",
            "regency_code": "3209",
            "long": 108.534628,
            "lat": -6.717033,
            "university_type": "Akademi"
        },
        {
            "group": "PTS",
            "address": "Jalan KH Sanusi No 24",
            "name": "AMIK Citra Buana Indonesia",
            "short_name": "AMIK CBI",
            "province": "Prov. Jawa Barat",
            "province_code": "32",
            "regency": "Kota Sukabumi",
            "regency_code": "3202",
            "long": 106.9112395,
            "lat": -6.9178339,
            "university_type": "Akademi"
        },
        {
            "group": "PTS",
            "address": "Jalan Pancasila No 29 Sawahan - Sungai Penuh",
            "name": "AMIK Depati Parbo Kerinci",
            "short_name": "AMIK-DP",
            "province": "Prov. Jambi",
            "province_code": "15",
            "regency": "Kab. Kerinci",
            "regency_code": "1501",
            "long": 101.405193,
            "lat": -2.070207,
            "university_type": "Akademi"
        },
        {
            "group": "PTS",
            "address": "Jalan Jend.Sudirman KM. 5 Kelurahan Songka Kecamatan Wara Selatan",
            "name": "AMIK Ibnu Khaldun Palopo",
            "short_name": "AMIK Ibnu Khaldun Pa",
            "province": "Prov. Sulawesi Selatan",
            "province_code": "73",
            "regency": "Kota Palopo",
            "regency_code": "7373",
            "long": 120.216351,
            "lat": -3.040548,
            "university_type": "Akademi"
        },
        {
            "group": "PTS",
            "address": "Komplek Yayasan Pembangunan Kampus Jabal Ghafur Glegapui Sigli",
            "name": "AMIK Jabal Ghafur",
            "short_name": "AMIK JABAL GHAFUR",
            "province": "Prov. Aceh",
            "province_code": "11",
            "regency": "Kab. Pidie",
            "regency_code": "1107",
            "long": 95.9183242,
            "lat": 5.2937452,
            "university_type": "Akademi"
        },
        {
            "group": "PTS",
            "address": "Jalan Kelud Raya No 19, Semarang",
            "name": "AMIK Jakarta Teknologi Cipta",
            "short_name": "AMIK JTC Semarang",
            "province": "Prov. Jawa Tengah",
            "province_code": "33",
            "regency": "Kota Semarang",
            "regency_code": "3322",
            "long": 110.39657,
            "lat": -7.006557,
            "university_type": "Akademi"
        },
        {
            "group": "PTS",
            "address": "Jalan Bunga No 8-8A, Matraman",
            "name": "AMIK Laksi-31",
            "short_name": null,
            "province": "Prov. D.K.I. Jakarta",
            "province_code": "31",
            "regency": "Kota Jakarta Timur",
            "regency_code": "3175",
            "long": null,
            "lat": null,
            "university_type": "Akademi"
        },
        {
            "group": "PTS",
            "address": "Jl. Sutardjo No. 30 Luwuk\nKabupaten Banggai - Sulawesi Tengah",
            "name": "AMIK Luwuk Banggai",
            "short_name": "AMIK NURMAL",
            "province": "Prov. Sulawesi Tengah",
            "province_code": "72",
            "regency": "Kab. Banggai",
            "regency_code": "7201",
            "long": 122.790393,
            "lat": -0.947805,
            "university_type": "Akademi"
        },
        {
            "group": "PTS",
            "address": "Jalan Hr. Subrantas No. 77 KM. 12 Panam - Pekanbaru - Riau",
            "name": "AMIK Mahaputra Riau",
            "short_name": "AMP",
            "province": "Prov. Riau",
            "province_code": "14",
            "regency": "Kota Pekanbaru",
            "regency_code": "1471",
            "long": 101.3798088,
            "lat": 0.4639818,
            "university_type": "Akademi"
        },
        {
            "group": "PTS",
            "address": "Jalan Maccini Raya No 197",
            "name": "AMIK Makassar",
            "short_name": null,
            "province": "Prov. Sulawesi Selatan",
            "province_code": "73",
            "regency": "Kota Makassar",
            "regency_code": "7371",
            "long": null,
            "lat": null,
            "university_type": "Akademi"
        },
        {
            "group": "PTS",
            "address": "Jl. Gatot Subroto No. 9 Cimone",
            "name": "AMIK Mapan Tangerang",
            "short_name": "AMIK MAPAN",
            "province": "Prov. Banten",
            "province_code": "36",
            "regency": "Kota Tangerang",
            "regency_code": "3603",
            "long": 106.612338,
            "lat": -6.185124,
            "university_type": "Akademi"
        },
        {
            "group": "PTS",
            "address": "Jalan MT Haryono No 90 Wua-wua",
            "name": "AMIK Milan Kendari",
            "short_name": null,
            "province": "Prov. Sulawesi Tenggara",
            "province_code": "74",
            "regency": "Kota Kendari",
            "regency_code": "7471",
            "long": null,
            "lat": null,
            "university_type": "Akademi"
        },
        {
            "group": "PTS",
            "address": "Jalan Sultan Abdurrahman No 8",
            "name": "AMIK Panca Bhakti",
            "short_name": null,
            "province": "Prov. Kalimantan Barat",
            "province_code": "61",
            "regency": "Kota Pontianak",
            "regency_code": "6171",
            "long": 109.3277338,
            "lat": -0.0403561,
            "university_type": "Akademi"
        },
        {
            "group": "PTS",
            "address": "Jalan Pane No. 34 Kel. Kebun Sayur Kec. Siantar Timur",
            "name": "AMIK Parbina Nusantara",
            "short_name": "APN",
            "province": "Prov. Sumatera Utara",
            "province_code": "12",
            "regency": "Kota Pematang Siantar",
            "regency_code": "1272",
            "long": 99.0714346,
            "lat": 2.9535868,
            "university_type": "Akademi"
        },
        {
            "group": "PTS",
            "address": "JL. Ir. H. DJUANDA NO. 256 INDRAMAYU",
            "name": "AMIK Purnama Niaga",
            "short_name": "AMIK PURNAMA NIAGA",
            "province": "Prov. Jawa Barat",
            "province_code": "32",
            "regency": "Kab. Indramayu",
            "regency_code": "3212",
            "long": null,
            "lat": null,
            "university_type": "Akademi"
        },
        {
            "group": "PTS",
            "address": "Jalan Dorak Selatpanjang",
            "name": "AMIK Selat Panjang",
            "short_name": "amik selatpanjang",
            "province": "Prov. Riau",
            "province_code": "14",
            "regency": "Kab. Kepulauan Meranti",
            "regency_code": "1410",
            "long": 102.7265583,
            "lat": 0.9978801,
            "university_type": "Akademi"
        },
        {
            "group": "PTS",
            "address": "Ir H Juanda No 139",
            "name": "AMIK Sultan Agung",
            "short_name": "AMIK SA",
            "province": "Prov. Jawa Barat",
            "province_code": "32",
            "regency": "Kab. Bekasi",
            "regency_code": "3216",
            "long": 106.9129603,
            "lat": -6.2764595,
            "university_type": "Akademi"
        },
        {
            "group": "PTS",
            "address": "Jalan Ir H Juanda No 7744",
            "name": "AMIK Tomakaka",
            "short_name": null,
            "province": "Prov. Sulawesi Barat",
            "province_code": "76",
            "regency": "Kab. Majene",
            "regency_code": "7605",
            "long": null,
            "lat": null,
            "university_type": "Akademi"
        },
        {
            "group": "PTS",
            "address": "Jalan Undata No 10",
            "name": "AMIK Tri Dharma Palu",
            "short_name": "AMIK TRI DHARMA PALU",
            "province": "Prov. Sulawesi Tengah",
            "province_code": "72",
            "regency": "Kota Palu",
            "regency_code": "7271",
            "long": 119.8596353,
            "lat": -0.8874206,
            "university_type": "Akademi"
        },
        {
            "group": "PTS",
            "address": "kampus A. Jl Gurupatimpus No. 1-K Medan Barat\nKampus B Kompl. MMTC Blok.B No. 2",
            "name": "AMIK Widya Loka Medan",
            "short_name": "AWL",
            "province": "Prov. Sumatera Utara",
            "province_code": "12",
            "regency": "Kota Medan",
            "regency_code": "1271",
            "long": 98.8884939,
            "lat": 3.5956855,
            "university_type": "Akademi"
        },
        {
            "group": "PTS",
            "address": "Jalan Patih Derus No 2-B",
            "name": "AMIK Wira Nusantara",
            "short_name": "AMIK Winus",
            "province": "Prov. Banten",
            "province_code": "36",
            "regency": "Kab. Lebak",
            "regency_code": "3602",
            "long": null,
            "lat": null,
            "university_type": "Akademi"
        },
        {
            "group": "PTS",
            "address": "Jalan R Soeprapto No 14",
            "name": "AMIK Yapenas Kendari",
            "short_name": null,
            "province": "Prov. Sulawesi Tenggara",
            "province_code": "74",
            "regency": "Kota Kendari",
            "regency_code": "7471",
            "long": null,
            "lat": null,
            "university_type": "Akademi"
        },
        {
            "group": "PTS",
            "address": "Jalan Bener 14 Tegalrejo",
            "name": "ASM Marsudirini Santa Maria",
            "short_name": "ASMI Santa Maria",
            "province": "Prov. D.I. Yogyakarta",
            "province_code": "34",
            "regency": "Kota Yogyakarta",
            "regency_code": "3471",
            "long": 110.3524021,
            "lat": -7.7798106,
            "university_type": "Akademi"
        },
        {
            "group": "PTS",
            "address": "Jl. Soetoyo S No. 197 Teluk Dalam Banjarmasin",
            "name": "ASMI Citra Nusantara",
            "short_name": "ASMI CINUS",
            "province": "Prov. Kalimantan Selatan",
            "province_code": "63",
            "regency": "Kota Banjarmasin",
            "regency_code": "6303",
            "long": 114.584605,
            "lat": -3.320635,
            "university_type": "Akademi"
        },
        {
            "group": "PTS",
            "address": "Jalan Pemuda No 393",
            "name": "Akademi  Manajemen Informatika dan Komputer (AMIK) Millenium Kolaka",
            "short_name": null,
            "province": "Prov. Sulawesi Tenggara",
            "province_code": "74",
            "regency": "Kab. Kolaka",
            "regency_code": "7401",
            "long": null,
            "lat": null,
            "university_type": "Akademi"
        },
        {
            "group": "PTS",
            "address": "Jl. Kali Brantas No.24-25, Karang, Sukun",
            "name": "Akademi Administrasi Rumah Sakit Mataram",
            "short_name": null,
            "province": "Prov. Nusa Tenggara Barat",
            "province_code": "52",
            "regency": "Kota Mataram",
            "regency_code": "5271",
            "long": 116.119346,
            "lat": -8.609566,
            "university_type": "Akademi"
        },
        {
            "group": "PTS",
            "address": "Jalan Birugo Bungo No 137 A Bukittinggi",
            "name": "Akademi Akuntansi (AKTAN) Boekittinggi",
            "short_name": "AKTAN \"BOEKITTINGGI\"",
            "province": "Prov. Sumatera Barat",
            "province_code": "13",
            "regency": "Kota Bukittinggi",
            "regency_code": "1375",
            "long": 100.3858452,
            "lat": -0.3255294,
            "university_type": "Akademi"
        },
        {
            "group": "PTS",
            "address": "Jalan Merdeka No 33",
            "name": "Akademi Akuntansi Bandung",
            "short_name": "A2B",
            "province": "Prov. Jawa Barat",
            "province_code": "32",
            "regency": "Kota Bandung",
            "regency_code": "3204",
            "long": 107.6104221,
            "lat": -6.9088698,
            "university_type": "Akademi"
        },
        {
            "group": "PTS",
            "address": "Jalan Raya Kalimalang No 1",
            "name": "Akademi Akuntansi Borobudur",
            "short_name": null,
            "province": "Prov. D.K.I. Jakarta",
            "province_code": "31",
            "regency": "Kota Jakarta Timur",
            "regency_code": "3175",
            "long": null,
            "lat": null,
            "university_type": "Akademi"
        },
        {
            "group": "PTS",
            "address": "JL. KH Ahmad Dahlan No. 23 Semarang",
            "name": "Akademi Akuntansi Effendi Harahap",
            "short_name": "AAE",
            "province": "Prov. Jawa Tengah",
            "province_code": "33",
            "regency": "Kota Semarang",
            "regency_code": "3322",
            "long": 110.4263492,
            "lat": -6.9887322,
            "university_type": "Akademi"
        },
        {
            "group": "PTS",
            "address": "Jalan Veteran Dalam No 26 B",
            "name": "Akademi Akuntansi Indonesia Padang",
            "short_name": "AAI",
            "province": "Prov. Sumatera Barat",
            "province_code": "13",
            "regency": "Kota Padang",
            "regency_code": "1305",
            "long": 106.803518,
            "lat": 6.224032,
            "university_type": "Akademi"
        },
        {
            "group": "PTS",
            "address": "Jl. P. Diponegoro No 74 Jakarta Pusat",
            "name": "Akademi Akuntansi YAI Jakarta",
            "short_name": "AA YAI",
            "province": "Prov. D.K.I. Jakarta",
            "province_code": "31",
            "regency": "Kota Jakarta Pusat",
            "regency_code": "3171",
            "long": 106.8491721,
            "lat": -6.1965929,
            "university_type": "Akademi"
        },
        {
            "group": "PTS",
            "address": "Jl Sakti Lubis Gang Pegawai Nomor Delapan Simpang Limun",
            "name": "Akademi Akuntansi YPK Medan",
            "short_name": null,
            "province": "Prov. Sumatera Utara",
            "province_code": "12",
            "regency": "Kota Medan",
            "regency_code": "1271",
            "long": 98.69395,
            "lat": 3.553978,
            "university_type": "Akademi"
        },
        {
            "group": "PTS",
            "address": null,
            "name": "Akademi Akuntansi dan Manajemen Pembangunan",
            "short_name": "Kampus AAMP",
            "province": "Prov. Bengkulu",
            "province_code": "17",
            "regency": "Kota Bengkulu",
            "regency_code": "1701",
            "long": 102.3134369,
            "lat": -3.8702063,
            "university_type": "Akademi"
        },
        {
            "group": "PTS",
            "address": null,
            "name": "Akademi Akupunktur Aceh",
            "short_name": "AAA",
            "province": "Prov. Aceh",
            "province_code": "11",
            "regency": "Kota Banda Aceh",
            "regency_code": "1171",
            "long": 95.4166393,
            "lat": 5.6442093,
            "university_type": "Akademi"
        },
        {
            "group": "PTS",
            "address": "Jalan Indrapura No 17",
            "name": "Akademi Akupunktur Surabaya",
            "short_name": null,
            "province": "Prov. Jawa Timur",
            "province_code": "35",
            "regency": "Kota Surabaya",
            "regency_code": "3578",
            "long": null,
            "lat": null,
            "university_type": "Akademi"
        },
        {
            "group": "PTS",
            "address": null,
            "name": "Akademi Analis Farmasi Al Islam Yogyakarta",
            "short_name": null,
            "province": "Prov. Sumatera Utara",
            "province_code": "12",
            "regency": "Kota Medan",
            "regency_code": "1271",
            "long": null,
            "lat": null,
            "university_type": "Akademi"
        },
        {
            "group": "PTS",
            "address": "Jalan Tengku Chik Ditiro",
            "name": "Akademi Analis Farmasi Dan Makanan Banda Aceh",
            "short_name": "AKAFARMA Banda Aceh",
            "province": "Prov. Aceh",
            "province_code": "11",
            "regency": "Kota Banda Aceh",
            "regency_code": "1171",
            "long": 95.3227305,
            "lat": 5.5514351,
            "university_type": "Akademi"
        },
        {
            "group": "PTS",
            "address": "Jalan Batoro Katong No. 32 Ponorogo",
            "name": "Akademi Analis Farmasi Dan Makanan Sunan Giri",
            "short_name": "AKAFARMA SUNAN GIRI",
            "province": "Prov. Jawa Timur",
            "province_code": "35",
            "regency": "Kab. Ponorogo",
            "regency_code": "3502",
            "long": 111.4782313,
            "lat": -7.8617823,
            "university_type": "Akademi"
        },
        {
            "group": "PTS",
            "address": "Gresik",
            "name": "Akademi Analis Kesehatan Delima Husada Gresik",
            "short_name": "AAK DHG",
            "province": "Prov. Jawa Timur",
            "province_code": "35",
            "regency": "Kab. Gresik",
            "regency_code": "3525",
            "long": 112.652657,
            "lat": -7.167089,
            "university_type": "Akademi"
        },
        {
            "group": "PTS",
            "address": "Jl RAYA DEPATI PAYUNG NEGARA no. 16 A  PADANG KEMILING KOTA BENGKULU",
            "name": "Akademi Analis Kesehatan Harapan Bangsa",
            "short_name": "AAKHB BENGKULU",
            "province": "Prov. Bengkulu",
            "province_code": "17",
            "regency": "Kota Bengkulu",
            "regency_code": "1701",
            "long": 102.3373455,
            "lat": -3.8561341,
            "university_type": "Akademi"
        },
        {
            "group": "PTS",
            "address": "Jl. Danau Sentani 97 Sawojajar Malang",
            "name": "Akademi Analis Kesehatan Malang",
            "short_name": null,
            "province": "Prov. Jawa Timur",
            "province_code": "35",
            "regency": "Kota Malang",
            "regency_code": "3507",
            "long": 112.6108932,
            "lat": -7.9677776,
            "university_type": "Akademi"
        },
        {
            "group": "PTS",
            "address": "Jl Bratajaya No 25 Sokowaten Banguntapan Bantul, Yogyakarta",
            "name": "Akademi Analis Kesehatan Manggala Yogyakarta",
            "short_name": "AAK Manggala",
            "province": "Prov. D.I. Yogyakarta",
            "province_code": "34",
            "regency": "Kab. Bantul",
            "regency_code": "3402",
            "long": 110.39949,
            "lat": -7.796088,
            "university_type": "Akademi"
        },
        {
            "group": "PTS",
            "address": "Jalan Raya Ade Irma Suryani No. 06 Tirto Pekalongan",
            "name": "Akademi Analis Kesehatan Pekalongan",
            "short_name": "AAK Pekalongan",
            "province": "Prov. Jawa Tengah",
            "province_code": "33",
            "regency": "Kab. Pekalongan",
            "regency_code": "3326",
            "long": 109.6225791,
            "lat": -6.8940231,
            "university_type": "Akademi"
        },
        {
            "group": "PTK",
            "address": "Akademi TNI Angkatan Laut, Bumimoro Morokrembangan, Surabaya",
            "name": "Akademi Angkatan Laut Surabaya",
            "short_name": "AAL",
            "province": "Prov. Jawa Timur",
            "province_code": "35",
            "regency": "Kota Surabaya",
            "regency_code": "3578",
            "long": null,
            "lat": null,
            "university_type": "Akademi"
        },
        {
            "group": "PTK",
            "address": null,
            "name": "Akademi Angkatan Udara (AAU)",
            "short_name": null,
            "province": "Prov. D.I. Yogyakarta",
            "province_code": "34",
            "regency": "Kota Yogyakarta",
            "regency_code": "3471",
            "long": 110.4356338,
            "lat": -7.7927165,
            "university_type": "Akademi"
        },
        {
            "group": "PTS",
            "address": "Jalan Serui No 33",
            "name": "Akademi Bahasa Asing Atmajaya Makassar",
            "short_name": null,
            "province": "Prov. Sulawesi Selatan",
            "province_code": "73",
            "regency": "Kota Makassar",
            "regency_code": "7371",
            "long": null,
            "lat": null,
            "university_type": "Akademi"
        },
        {
            "group": "PTS",
            "address": "Jalan WR Soepratman No 10",
            "name": "Akademi Bahasa Asing Colorado Samarinda",
            "short_name": null,
            "province": "Prov. Kalimantan Timur",
            "province_code": "64",
            "regency": "Kota Samarinda",
            "regency_code": "6472",
            "long": 117.1431722,
            "lat": -0.4996287,
            "university_type": "Akademi"
        },
        {
            "group": "PTS",
            "address": "Kotabumi",
            "name": "Akademi Bahasa Asing Dian Cipta Cendikia",
            "short_name": null,
            "province": "Prov. Lampung",
            "province_code": "18",
            "regency": "Kab. Lampung Utara",
            "regency_code": "1803",
            "long": null,
            "lat": null,
            "university_type": "Akademi"
        },
        {
            "group": "PTS",
            "address": "Jalan Soekarno Hatta No 22 Bandung\nJalan Parahyangan Km. 1,2, Kota Baru Parahya",
            "name": "Akademi Bahasa Asing Internasional Bandung",
            "short_name": "ABA Internasional",
            "province": "Prov. Jawa Barat",
            "province_code": "32",
            "regency": "Kota Bandung",
            "regency_code": "3204",
            "long": null,
            "lat": null,
            "university_type": "Akademi"
        },
        {
            "group": "PTS",
            "address": "Jalan Sawo Manila Pejaten Pasar Minggu",
            "name": "Akademi Bahasa Asing Nasional Jakarta",
            "short_name": null,
            "province": "Prov. D.K.I. Jakarta",
            "province_code": "31",
            "regency": "Kota Jakarta Selatan",
            "regency_code": "3174",
            "long": null,
            "lat": null,
            "university_type": "Akademi"
        },
        {
            "group": "PTS",
            "address": "Jl Gajah Mada Komp Batu Batam Mas Blok D & E No 1 Baloi",
            "name": "Akademi Bahasa Asing Permata Harapan",
            "short_name": null,
            "province": "Prov. Kepulauan Riau",
            "province_code": "21",
            "regency": "Kota Batam",
            "regency_code": "2171",
            "long": null,
            "lat": null,
            "university_type": "Akademi"
        },
        {
            "group": "PTS",
            "address": null,
            "name": "Akademi Bahasa Asing Sutopo",
            "short_name": null,
            "province": "Prov. D.K.I. Jakarta",
            "province_code": "31",
            "regency": "Kota Jakarta Pusat",
            "regency_code": "3171",
            "long": null,
            "lat": null,
            "university_type": "Akademi"
        },
        {
            "group": "PTS",
            "address": "Kakatua No 27",
            "name": "Akademi Bahasa Asing UMI Makassar",
            "short_name": null,
            "province": "Prov. Sulawesi Selatan",
            "province_code": "73",
            "regency": "Kota Makassar",
            "regency_code": "7371",
            "long": null,
            "lat": null,
            "university_type": "Akademi"
        },
        {
            "group": "PTS",
            "address": null,
            "name": "Akademi Bakti Kemanusiaan Palang Merah Indonesia",
            "short_name": "ABK PMI",
            "province": "Prov. D.K.I. Jakarta",
            "province_code": "31",
            "regency": "Kota Jakarta Selatan",
            "regency_code": "3174",
            "long": 115.1420028,
            "lat": 10.6301542,
            "university_type": "Akademi"
        },
        {
            "group": "PTS",
            "address": null,
            "name": "Akademi Bisnis 11 Oktober Kendari",
            "short_name": null,
            "province": "Prov. Sulawesi Tenggara",
            "province_code": "74",
            "regency": "Kota Kendari",
            "regency_code": "7471",
            "long": null,
            "lat": null,
            "university_type": "Akademi"
        },
        {
            "group": "PTS",
            "address": null,
            "name": "Akademi Bisnis Lombok",
            "short_name": "AKBIL",
            "province": "Prov. Nusa Tenggara Barat",
            "province_code": "52",
            "regency": "Kab. Lombok Utara",
            "regency_code": "5208",
            "long": 116.1340714,
            "lat": -8.3661553,
            "university_type": "Akademi"
        },
        {
            "group": "PTS",
            "address": null,
            "name": "Akademi Bisnis Martha Tilaar",
            "short_name": null,
            "province": "Prov. D.K.I. Jakarta",
            "province_code": "31",
            "regency": "Kota Jakarta Pusat",
            "regency_code": "3171",
            "long": null,
            "lat": null,
            "university_type": "Akademi"
        },
        {
            "group": "PTS",
            "address": null,
            "name": "Akademi Bisnis Sirnarasa",
            "short_name": null,
            "province": "Prov. Jawa Barat",
            "province_code": "32",
            "regency": "Kab. Ciamis",
            "regency_code": "3207",
            "long": null,
            "lat": null,
            "university_type": "Akademi"
        },
        {
            "group": "PTS",
            "address": null,
            "name": "Akademi Bisnis dan Keuangan Primaniyarta",
            "short_name": null,
            "province": "Prov. Sulawesi Utara",
            "province_code": "71",
            "regency": "Kota Manado",
            "regency_code": "7171",
            "long": null,
            "lat": null,
            "university_type": "Akademi"
        },
        {
            "group": "PTS",
            "address": null,
            "name": "Akademi Digital Bandung",
            "short_name": "ADB",
            "province": "Prov. Jawa Barat",
            "province_code": "32",
            "regency": "Kota Bandung",
            "regency_code": "3204",
            "long": 107.6789762,
            "lat": -6.9406017,
            "university_type": "Akademi"
        },
        {
            "group": "PTS",
            "address": "Jl. Arteri Utara, Kompleks Grand Marina, Semarang - Jawa Tengah",
            "name": "Akademi Enterpreneurship Terang Bangsa",
            "short_name": "AE TERBANG",
            "province": "Prov. Jawa Tengah",
            "province_code": "33",
            "regency": "Kota Semarang",
            "regency_code": "3322",
            "long": 110.392778,
            "lat": -6.954919,
            "university_type": "Akademi"
        },
        {
            "group": "PTS",
            "address": "Jalan Penganten Ali No. 6A, Ciracas",
            "name": "Akademi Farmasi Bhumi Husada",
            "short_name": "Akfar Bhumi Husada",
            "province": "Prov. D.K.I. Jakarta",
            "province_code": "31",
            "regency": "Kota Jakarta Timur",
            "regency_code": "3175",
            "long": 114.5312537,
            "lat": 0.4476212,
            "university_type": "Akademi"
        },
        {
            "group": "PTS",
            "address": "Jl. Towua No. 114 Palu",
            "name": "Akademi Farmasi Bina Farmasi",
            "short_name": "AKFAR BINA FARMASI",
            "province": "Prov. Sulawesi Tengah",
            "province_code": "72",
            "regency": "Kota Palu",
            "regency_code": "7271",
            "long": 119.883603,
            "lat": -0.930895,
            "university_type": "Akademi"
        },
        {
            "group": "PTS",
            "address": "Bandung",
            "name": "Akademi Farmasi Bumi Siliwangi",
            "short_name": "Akfar Bumsil",
            "province": "Prov. Jawa Barat",
            "province_code": "32",
            "regency": "Kota Bandung",
            "regency_code": "3204",
            "long": 107.6643602,
            "lat": -6.9458197,
            "university_type": "Akademi"
        },
        {
            "group": "PTS",
            "address": "Jl. Pulau Enggano Tirtayasa No. 100 Sukabumi Bandar Lampung",
            "name": "Akademi Farmasi Cendikia Farma Husada",
            "short_name": "Akfar Cefada",
            "province": "Prov. Lampung",
            "province_code": "18",
            "regency": "Kota Bandar Lampung",
            "regency_code": "1871",
            "long": 105.2995817,
            "lat": -5.3930423,
            "university_type": "Akademi"
        },
        {
            "group": "PTS",
            "address": "Jalan By Pass Surau Gadang",
            "name": "Akademi Farmasi Dwi Farma",
            "short_name": null,
            "province": "Prov. Sumatera Barat",
            "province_code": "13",
            "regency": "Kota Bukittinggi",
            "regency_code": "1375",
            "long": 100.3778752,
            "lat": -0.2939347,
            "university_type": "Akademi"
        },
        {
            "group": "PTS",
            "address": "JL KESEHATAN NO 20, BUKITTINGGI",
            "name": "Akademi Farmasi Imam Bonjol",
            "short_name": "AKFAR IB",
            "province": "Prov. Sumatera Barat",
            "province_code": "13",
            "regency": "Kota Bukittinggi",
            "regency_code": "1375",
            "long": 100.36399,
            "lat": -0.299804,
            "university_type": "Akademi"
        },
        {
            "group": "PTS",
            "address": "Kebrokan RT 20 RW 05, Pandeyan, Umbulharjo, Yogyakarta",
            "name": "Akademi Farmasi Indonesia Yogyakarta",
            "short_name": "AFIYO",
            "province": "Prov. D.I. Yogyakarta",
            "province_code": "34",
            "regency": "Kota Yogyakarta",
            "regency_code": "3471",
            "long": 110.3899831,
            "lat": -7.8158489,
            "university_type": "Akademi"
        },
        {
            "group": "PTS",
            "address": "Jalan Soeparjo Roestam No 170 Sokaraja",
            "name": "Akademi Farmasi Kusuma Husada Purwokerto",
            "short_name": "AKFAR KUSUMA HUSADA",
            "province": "Prov. Jawa Tengah",
            "province_code": "33",
            "regency": "Kab. Banyumas",
            "regency_code": "3302",
            "long": 109.2418689,
            "lat": -7.4396946,
            "university_type": "Akademi"
        },
        {
            "group": "PTS",
            "address": "Jl. Ki Hajar Dewantara No.200 Krian Sidoarjo",
            "name": "Akademi Farmasi Mitra Sehat Mandiri Sidoarjo",
            "short_name": "AKFARMITSEDA",
            "province": "Prov. Jawa Timur",
            "province_code": "35",
            "regency": "Kab. Sidoarjo",
            "regency_code": "3515",
            "long": 112.577275,
            "lat": -7.417893,
            "university_type": "Akademi"
        },
        {
            "group": "PTK",
            "address": "Jalan Syiah Kuala No. 6",
            "name": "Akademi Farmasi Nad",
            "short_name": null,
            "province": "Prov. Aceh",
            "province_code": "11",
            "regency": "Kota Banda Aceh",
            "regency_code": "1171",
            "long": 95.33029,
            "lat": -5.560577,
            "university_type": "Akademi"
        },
        {
            "group": "PTS",
            "address": null,
            "name": "Akademi Farmasi Persada Sukabumi",
            "short_name": "AKFAR PERSADA",
            "province": "Prov. Jawa Barat",
            "province_code": "32",
            "regency": "Kota Sukabumi",
            "regency_code": "3202",
            "long": 106.9504417,
            "lat": -6.9063302,
            "university_type": "Akademi"
        },
        {
            "group": "PTS",
            "address": "Jalan Sudirman No. 50",
            "name": "Akademi Farmasi Prayoga Padang",
            "short_name": "AKFAR PRAYOGA PADANG",
            "province": "Prov. Sumatera Barat",
            "province_code": "13",
            "regency": "Kota Padang",
            "regency_code": "1305",
            "long": 100.361349,
            "lat": -0.937678,
            "university_type": "Akademi"
        },
        {
            "group": "PTS",
            "address": null,
            "name": "Akademi Farmasi Putra Indonesia Malang",
            "short_name": null,
            "province": "Prov. Jawa Timur",
            "province_code": "35",
            "regency": "Kota Malang",
            "regency_code": "3507",
            "long": null,
            "lat": null,
            "university_type": "Akademi"
        },
        {
            "group": "PTS",
            "address": "Jalan Hogor Hini Maumere NTT",
            "name": "Akademi Farmasi Santo Fransiskus Xaverius",
            "short_name": null,
            "province": "Prov. Nusa Tenggara Timur",
            "province_code": "53",
            "regency": "Kab. Sikka",
            "regency_code": "5307",
            "long": 122.208623,
            "lat": -8.611895,
            "university_type": "Akademi"
        },
        {
            "group": "PTS",
            "address": "JL Ketintang Madya No 81 Surabaya (Belakang SMA Al Falah Ketintang Surabaya)",
            "name": "Akademi Farmasi Surabaya",
            "short_name": "AKFAR SURABAYA",
            "province": "Prov. Jawa Timur",
            "province_code": "35",
            "regency": "Kota Surabaya",
            "regency_code": "3578",
            "long": 112.724635,
            "lat": -7.3132045,
            "university_type": "Akademi"
        },
        {
            "group": "PTS",
            "address": "JL. Dewi Sartika VII No.77 Kelurahan Birobuli Selatan Kecamatan Palu Selatan",
            "name": "Akademi Farmasi Tadulako Farma",
            "short_name": "AKFAR TADULAKO FARMA",
            "province": "Prov. Sulawesi Tengah",
            "province_code": "72",
            "regency": "Kota Palu",
            "regency_code": "7271",
            "long": 119.8958105,
            "lat": -0.9350087,
            "university_type": "Akademi"
        },
        {
            "group": "PTS",
            "address": "JL. NUSANTARA NO.76, MAKALE\nKABUPATEN TANA TORAJA\nPROPINSI SULAWESI SELATAN\nI",
            "name": "Akademi Farmasi Toraja",
            "short_name": "AKFAR TORAJA",
            "province": "Prov. Sulawesi Selatan",
            "province_code": "73",
            "regency": "Kab. Tana Toraja",
            "regency_code": "7318",
            "long": null,
            "lat": null,
            "university_type": "Akademi"
        },
        {
            "group": "PTS",
            "address": "Jl. Cisaranten Kulon No.105\nRT.04 RW. 02\nkelurahan Cisaranten Kulon\nKecamatan C",
            "name": "Akademi Farmasi YPF",
            "short_name": "Akademi Farmasi YPF",
            "province": "Prov. Jawa Barat",
            "province_code": "32",
            "regency": "Kota Bandung",
            "regency_code": "3204",
            "long": null,
            "lat": null,
            "university_type": "Akademi"
        },
        {
            "group": "PTS",
            "address": "Jalan T. Nyak Arief No. 333 C/D Jeulingke",
            "name": "Akademi Farmasi YPPM Mandiri",
            "short_name": "AKFAR YPPM MANDIRI",
            "province": "Prov. Aceh",
            "province_code": "11",
            "regency": "Kota Banda Aceh",
            "regency_code": "1171",
            "long": 95.360304,
            "lat": 5.5776083,
            "university_type": "Akademi"
        },
        {
            "group": "PTS",
            "address": "JL. MAPALA BLOK D 5/ No. 10 Makassar",
            "name": "Akademi Farmasi Yamasi Makassar",
            "short_name": "AKFAR YAMASI",
            "province": "Prov. Sulawesi Selatan",
            "province_code": "73",
            "regency": "Kota Makassar",
            "regency_code": "7371",
            "long": null,
            "lat": null,
            "university_type": "Akademi"
        },
        {
            "group": "PTS",
            "address": "Jl. Letnan Singosastro No. 3 Kraton",
            "name": "Akademi Farmasi Yannas Husada Bangkalan",
            "short_name": "AKFAR YANNAS",
            "province": "Prov. Jawa Timur",
            "province_code": "35",
            "regency": "Kab. Bangkalan",
            "regency_code": "3526",
            "long": 112.747652,
            "lat": -7.0327181,
            "university_type": "Akademi"
        },
        {
            "group": "PTS",
            "address": "Jalan Panglima Aim No 2",
            "name": "Akademi Farmasi Yarsi Pontianak",
            "short_name": "Akfar Yarsi Pontiana",
            "province": "Prov. Kalimantan Barat",
            "province_code": "61",
            "regency": "Kota Pontianak",
            "regency_code": "6171",
            "long": 109.3587148,
            "lat": -0.0353381,
            "university_type": "Akademi"
        },
        {
            "group": "PTS",
            "address": "Jl. Ipda Tut Harsono No.26., Muja Muju, Kec. Umbulharjo",
            "name": "Akademi Film Yogyakarta",
            "short_name": "AFY",
            "province": "Prov. D.I. Yogyakarta",
            "province_code": "34",
            "regency": "Kota Yogyakarta",
            "regency_code": "3471",
            "long": 110.392664,
            "lat": -7.798278,
            "university_type": "Akademi"
        },
        {
            "group": "PTS",
            "address": "Jalan Jenderal Sudirman 27-29 Komp Rs Tengku Fakinah",
            "name": "Akademi Fisioterapi Harapan Bangsa Banda Aceh",
            "short_name": "AKFIS YHBD",
            "province": "Prov. Aceh",
            "province_code": "11",
            "regency": "Kota Banda Aceh",
            "regency_code": "1171",
            "long": 95.32267,
            "lat": 5.551468,
            "university_type": "Akademi"
        },
        {
            "group": "PTS",
            "address": "Jl Ring Road Selatan Giwangan Umbulharjo Jogjakarta",
            "name": "Akademi Fisioterapi YAB Yogyakarta",
            "short_name": "AKFIS \"YAB\"",
            "province": "Prov. D.I. Yogyakarta",
            "province_code": "34",
            "regency": "Kota Yogyakarta",
            "regency_code": "3471",
            "long": 110.389361,
            "lat": -7.8360565,
            "university_type": "Akademi"
        },
        {
            "group": "PTS",
            "address": null,
            "name": "Akademi Gizi Andalusia",
            "short_name": null,
            "province": "Prov. Banten",
            "province_code": "36",
            "regency": "Kab. Tangerang",
            "regency_code": "3603",
            "long": 106.5957753,
            "lat": -6.2127996,
            "university_type": "Akademi"
        },
        {
            "group": "PTS",
            "address": "JL. SOEKARNO - HATTA NO. 7 POBOX 153 PARE - KAB.KEDIRI",
            "name": "Akademi Gizi Karya Husada Kediri",
            "short_name": "AKZI KH KEDIRI",
            "province": "Prov. Jawa Timur",
            "province_code": "35",
            "regency": "Kab. Kediri",
            "regency_code": "3506",
            "long": 112.08109,
            "lat": -7.8438342,
            "university_type": "Akademi"
        },
        {
            "group": "PTK",
            "address": "Jl. Bendul Merisi 126 Surabaya",
            "name": "Akademi Gizi Surabaya",
            "short_name": "AKZI SURABAYA",
            "province": "Prov. Jawa Timur",
            "province_code": "35",
            "regency": "Kota Surabaya",
            "regency_code": "3578",
            "long": 112.746425,
            "lat": -7.30609,
            "university_type": "Akademi"
        },
        {
            "group": "PTS",
            "address": "Jalan Batua Raya VII No 21",
            "name": "Akademi Ilmu Gizi YPAG Makassar",
            "short_name": "AIGI YPAGI",
            "province": "Prov. Sulawesi Selatan",
            "province_code": "73",
            "regency": "Kota Makassar",
            "regency_code": "7371",
            "long": 119.460563,
            "lat": -5.155473,
            "university_type": "Akademi"
        },
        {
            "group": "PTS",
            "address": "Jl. Raya Labuhan Haji, Montong Meong,",
            "name": "Akademi Ilmu Pelayaran Nusa Tenggara",
            "short_name": "AIP-NUSRA",
            "province": "Prov. Nusa Tenggara Barat",
            "province_code": "52",
            "regency": "Kab. Lombok Timur",
            "regency_code": "5203",
            "long": 116.559071,
            "lat": -8.706314,
            "university_type": "Akademi"
        },
        {
            "group": "PTS",
            "address": "Jalan Bantam No 12",
            "name": "Akademi Informatika Dan Komputer Medicom",
            "short_name": "AMIK MEDICOM",
            "province": "Prov. Sumatera Utara",
            "province_code": "12",
            "regency": "Kota Medan",
            "regency_code": "1271",
            "long": 98.6621848,
            "lat": 3.5762057,
            "university_type": "Akademi"
        },
        {
            "group": "PTS",
            "address": null,
            "name": "Akademi Inovasi Indonesia",
            "short_name": "AII",
            "province": "Prov. Jawa Tengah",
            "province_code": "33",
            "regency": "Kota Salatiga",
            "regency_code": "3373",
            "long": 110.4965803,
            "lat": -7.3397092,
            "university_type": "Akademi"
        }
    ],
    "paging": {
        "page": 1,
        "size": 100,
        "total_item": 4355,
        "total_page": 44
    }
}